var hoteles = {"type":"FeatureCollection", 
"features": [{
    "type":"Feature",
    "geometry":{"type":"Point","coordinates":[-83.0291111422381,9.994575656216455]},
    "properties":{"cat":1,"NOMBRE":"ACON","TELEFONO":"2758-1010 / 2758-4099","FAX":"2758-2924","DIRECCION":"AVENIDA 3. CALLE 3 100 M ESTE DEL MERCADO CENTRAL","HABITACION":39,"PAG_INTERN":"ND","CATEGORIA_":1,"CORREO":"ND"}},
{"type":"Feature","geometry":{"type":"Point","coordinates":[-82.66087959274802,9.630956558379843]},"properties":{"cat":10,"NOMBRE":"ALMENDROS Y CORALES","TELEFONO":"2759-9032 / 2271-3000","FAX":"2272-2220","DIRECCION":"2KM ANTES DE MANZANILLO. 14 KM SUR DE PUERTO VIEJO DE LIMON","HABITACION":24,"PAG_INTERN":"www.almondsandcorals.com/hotel.html","CATEGORIA_":3,"CORREO":"ND"}},
{"type":"Feature","geometry":{"type":"Point","coordinates":[-82.84206369431259,9.738410187064689]},"properties":{"cat":45,"NOMBRE":"ATLANTIDA LODGE","TELEFONO":"755-0115","FAX":"ND","DIRECCION":"CAHUITA","HABITACION":0,"PAG_INTERN":"ND","CATEGORIA_":0,"CORREO":"ND"}},
{"type":"Feature","geometry":{"type":"Point","coordinates":[-82.72851975440352,9.64501350914182]},"properties":{"cat":94,"NOMBRE":"CARIBLUE BUNGALOWS","TELEFONO":"2750-0518","FAX":"2750-0057","DIRECCION":"PLAYA COCLES. 1.5 KM AL SUR","HABITACION":15,"PAG_INTERN":"www.cariblue.com","CATEGORIA_":3,"CORREO":"cariblue@racsa.co.cr"}},
{"type":"Feature","geometry":{"type":"Point","coordinates":[-82.7317181018683,9.64501889025502]},"properties":{"cat":96,"NOMBRE":"CASA CAMARONA LODGE","TELEFONO":"2750-0151 / 2283-6711","FAX":"2750-0210","DIRECCION":"PLAYA COCLES. LIMON","HABITACION":20,"PAG_INTERN":"www.casacamarona.co.cr","CATEGORIA_":2,"CORREO":"ND"}},
{"type":"Feature","geometry":{"type":"Point","coordinates":[-83.5956329683659,10.77154628441962]},"properties":{"cat":103,"NOMBRE":"CASA MAR (CAMPO DE PESCA)","TELEFONO":"800-543-0282 / 2714-578-1881","FAX":"800-367-2299","DIRECCION":"BARRA DEL COLORADO","HABITACION":12,"PAG_INTERN":"www.casamarlodge.com","CATEGORIA_":2,"CORREO":"info@CasaMarLodge.com"}},
{"type":"Feature","geometry":{"type":"Point","coordinates":[-82.7538986404306,9.657327221228234]},"properties":{"cat":109,"NOMBRE":"CASHEW HILL JUNGLE LODGE & RETREAT CENTER","TELEFONO":"750-0256","FAX":"ND","DIRECCION":"PUERTO VIEJO","HABITACION":0,"PAG_INTERN":"ND","CATEGORIA_":0,"CORREO":"ND"}},
{"type":"Feature","geometry":{"type":"Point","coordinates":[-82.84117776895415,9.73897932838693]},"properties":{"cat":131,"NOMBRE":"COLON CARIBE","TELEFONO":"2200-5101 / 2256-3005","FAX":"2256-5520","DIRECCION":"CAHUITA. 20 KM SUR DE LA CUIDAD DE LIMON","HABITACION":43,"PAG_INTERN":"www.coloncaribe.com","CATEGORIA_":3,"CORREO":"coloncaribe@colon.co.cr"}},
{"type":"Feature","geometry":{"type":"Point","coordinates":[-83.05776143571521,10.008859160147436]},"properties":{"cat":258,"NOMBRE":"HAPPY LAND","TELEFONO":"795-2828","FAX":"795-2544","DIRECCION":"PLAYA BONITA. CARRETERA HACIA MOIN. LIMON. CONTIGUO A RESIDENCIAS DE LOMAS DE RECOPE","HABITACION":0,"PAG_INTERN":"www.hotelhappyland.net/espanol/ubic.html","CATEGORIA_":0,"CORREO":"info@hotelhappyland.com"}},
{"type":"Feature","geometry":{"type":"Point","coordinates":[-83.759739331506,10.433147648344113]},"properties":{"cat":270,"NOMBRE":"ISLA VERDE","TELEFONO":"2763-3439 / 8385-0277","FAX":"2763-3439","DIRECCION":"BARRIO SAN BOSCO. 200 MTS OESTE Y 400 SUR DE LA ESCUELA LA VICTORIA","HABITACION":8,"PAG_INTERN":"www.albergueislaverde.com","CATEGORIA_":2,"CORREO":"ND"}},
{"type":"Feature","geometry":{"type":"Point","coordinates":[-83.50296120514253,10.542606679634456]},"properties":{"cat":288,"NOMBRE":"LA JUNGLA","TELEFONO":"2233-0133 / 8382-8965","FAX":"8382-8965","DIRECCION":"BARRA DE TORTUGUERO","HABITACION":46,"PAG_INTERN":"ND","CATEGORIA_":2,"CORREO":"ND"}},
{"type":"Feature","geometry":{"type":"Point","coordinates":[-82.68563763841887,9.64206109733345]},"properties":{"cat":308,"NOMBRE":"LAS PALMAS","TELEFONO":"2759-9090","FAX":"2759-9222","DIRECCION":"PUNTA UVA. LIMON","HABITACION":30,"PAG_INTERN":"www.laspalmashotel.com","CATEGORIA_":3,"CORREO":"ND"}},
{"type":"Feature","geometry":{"type":"Point","coordinates":[-83.06519761974934,10.009706418225877]},"properties":{"cat":333,"NOMBRE":"MARIBU CARIBE","TELEFONO":"2795-4010 / 2795-2553","FAX":"2795-3541","DIRECCION":"CARRETERA A MOIN. PORTETE","HABITACION":50,"PAG_INTERN":"ND","CATEGORIA_":2,"CORREO":"ND"}},
{"type":"Feature","geometry":{"type":"Point","coordinates":[-83.03368190710482,9.993258959687319]},"properties":{"cat":339,"NOMBRE":"MIAMI","TELEFONO":"2758-0490","FAX":"2758-0490","DIRECCION":"500 M OESTE EL MERCADO DE LIMON","HABITACION":32,"PAG_INTERN":"ND","CATEGORIA_":1,"CORREO":"ND"}},
{"type":"Feature","geometry":{"type":"Point","coordinates":[-83.50989088431353,10.55529641007624]},"properties":{"cat":367,"NOMBRE":"PACHIRA LODGE","TELEFONO":"2256-7080 / 2257-2242 / 2256-6340","FAX":"2223-1119","DIRECCION":"CANALES","HABITACION":34,"PAG_INTERN":"www.pachiralodge.com","CATEGORIA_":0,"CORREO":"info@pachiralodge.com"}},
{"type":"Feature","geometry":{"type":"Point","coordinates":[-83.03121023022739,9.994731639172489]},"properties":{"cat":375,"NOMBRE":"PARK (CARIBE)","TELEFONO":"2758-3476 / 2758-0555","FAX":"2758-4364","DIRECCION":"AVENIDA 4. CALLES 2 Y 4","HABITACION":35,"PAG_INTERN":"ND","CATEGORIA_":3,"CORREO":"ND"}},
{"type":"Feature","geometry":{"type":"Point","coordinates":[-82.72052731475846,9.644735166518513]},"properties":{"cat":398,"NOMBRE":"PUNTA COCLES","TELEFONO":"2750-0117","FAX":"2750-0336","DIRECCION":"5 KMS SUR CARRETERA MANZANILLO. PUERTO VIEJO","HABITACION":48,"PAG_INTERN":"ND","CATEGORIA_":2,"CORREO":"ND"}},
{"type":"Feature","geometry":{"type":"Point","coordinates":[-83.85751433558569,10.213276001835839]},"properties":{"cat":404,"NOMBRE":"RAIN FOREST AERIAL TRAM LODGE","TELEFONO":"2257-5361","FAX":"2257-6053","DIRECCION":"50 MINUTOS CAMINO A SAN JOSE","HABITACION":10,"PAG_INTERN":"www.rainforestrams.com","CATEGORIA_":2,"CORREO":"ND"}},
{"type":"Feature","geometry":{"type":"Point","coordinates":[-83.59408861776704,10.773773399358284]},"properties":{"cat":420,"NOMBRE":"RIO COLORADO LODGE","TELEFONO":"2232-4063","FAX":"2231-5987","DIRECCION":"200 METROS NORTE GUARDIA RURAL. BARRA DEL COLORADO","HABITACION":25,"PAG_INTERN":"www.riocoloradolodge.com","CATEGORIA_":0,"CORREO":"tarpon@riocoloradolodge.com"}},
{"type":"Feature","geometry":{"type":"Point","coordinates":[-83.35107805049944,10.30697222801022]},"properties":{"cat":422,"NOMBRE":"RIO PARISMINA","TELEFONO":"2236-1718","FAX":"2236-1718","DIRECCION":"BOCA PARISMINA","HABITACION":12,"PAG_INTERN":"www.riop.com","CATEGORIA_":3,"CORREO":"fish@riop.com"}},
{"type":"Feature","geometry":{"type":"Point","coordinates":[-82.75298517704691,9.656912371244767]},"properties":{"cat":430,"NOMBRE":"SAMASATI","TELEFONO":"2756-8015","FAX":"2756-8015","DIRECCION":"PUERTO VIEJO. TALAMANCA","HABITACION":20,"PAG_INTERN":"www.samasati.com","CATEGORIA_":2,"CORREO":"samasati@samasati.com"}},
{"type":"Feature","geometry":{"type":"Point","coordinates":[-83.03145390773246,9.992575232052928]},"properties":{"cat":443,"NOMBRE":"SILVER KING LODGE","TELEFONO":"8309-8125","FAX":"8369-7912","DIRECCION":"LIMON","HABITACION":10,"PAG_INTERN":"www.silverkinglodge.com","CATEGORIA_":3,"CORREO":"hal@silverkinglodge.com"}},
{"type":"Feature","geometry":{"type":"Point","coordinates":[-83.78143872911413,10.209124005327118]},"properties":{"cat":451,"NOMBRE":"SUERRE","TELEFONO":"2713-3000","FAX":"2710-6376","DIRECCION":"EN FRENTE DEL COLEGIO TECNICO. GUAPILES","HABITACION":68,"PAG_INTERN":"www.suerre.com","CATEGORIA_":4,"CORREO":"ND"}},
{"type":"Feature","geometry":{"type":"Point","coordinates":[-82.81816273467969,9.719463058714446]},"properties":{"cat":453,"NOMBRE":"SUIZO LOCO LODGE","TELEFONO":"2755-0349","FAX":"2755-0493","DIRECCION":"PLAYA NEGRA. CALLE PLAZA VIQUEZ","HABITACION":10,"PAG_INTERN":"www.suizolocolodge.com","CATEGORIA_":3,"CORREO":"info@suizolocolodge.com"}},
{"type":"Feature","geometry":{"type":"Point","coordinates":[-82.84049429518882,9.740054201140046]},"properties":{"cat":454,"NOMBRE":"SURF SIDE","TELEFONO":"755-0246","FAX":"ND","DIRECCION":"CAHUITA","HABITACION":0,"PAG_INTERN":"ND","CATEGORIA_":0,"CORREO":null}},
{"type":"Feature","geometry":{"type":"Point","coordinates":[-83.78876702851093,10.214388190876123]},"properties":{"cat":458,"NOMBRE":"TALAMANCA POCOCI","TELEFONO":"2710-3030 / 2710-2161","FAX":"2710-1708","DIRECCION":"ENTRADA PRINCIPAL. GUAPILES","HABITACION":48,"PAG_INTERN":"ND","CATEGORIA_":3,"CORREO":"ND"}},
{"type":"Feature","geometry":{"type":"Point","coordinates":[-83.50221108388526,10.540922844484758]},"properties":{"cat":477,"NOMBRE":"TORTUGA LODGE & GARDENS","TELEFONO":"2257-0766 / 2222-0333","FAX":"2257-1665","DIRECCION":"BARRA DE TORTUGUERO","HABITACION":27,"PAG_INTERN":"costaricaexpeditions.com","CATEGORIA_":3,"CORREO":"ND"}},
{"type":"Feature","geometry":{"type":"Point","coordinates":[-83.49931899619033,10.530964156152477]},"properties":{"cat":485,"NOMBRE":"TURTLE BEACH LODGE","TELEFONO":"2248-0707 / 2710-8068","FAX":"2257-4409","DIRECCION":"CANO PALMA. TORTUGUERO","HABITACION":55,"PAG_INTERN":"www.turtlebeachlodge.com","CATEGORIA_":3,"CORREO":"info@turtlebeachlodge.com"}},
{"type":"Feature","geometry":{"type":"Point","coordinates":[-82.71676286626855,9.64232153281357]},"properties":{"cat":511,"NOMBRE":"VILLAS DEL CARIBE","TELEFONO":"2750-0202","FAX":"2750-0203","DIRECCION":"DE PUERTO VIEJO DE LIMON 5 KM AL SUR. PLAYA CHIQUITA","HABITACION":20,"PAG_INTERN":"www.villasdelcaribe.com","CATEGORIA_":2,"CORREO":"info@villasdelcaribe.com"}},
{"type":"Feature","geometry":{"type":"Point","coordinates":[-82.68670251899862,9.641407546934955]},"properties":{"cat":533,"NOMBRE":"SUERRE CARIBBEAN BEACH","TELEFONO":"759-9091","FAX":"759-9076","DIRECCION":"FRENTE PLAYA PUNTA UVA. A 5 MINUTOS DE PUERTO VIEJO. CARRETERA A MANZANILLO","HABITACION":40,"PAG_INTERN":"www.suerre.com","CATEGORIA_":0,"CORREO":"ND"}}
]}